[
  {
    "address_1": "123 Main St",
    "address_2": null,
    "address_3": null,
    "brewery_type": "brewpub",
    "city": "Phoenix",
    "country": "United States",
    "id": "abc12345-def6-7890-ghij-1234567890kl",
    "latitude": "33.448376",
    "longitude": "-112.074036",
    "name": "Phoenix Brew Co",
    "phone": "6021234567",
    "postal_code": "85004",
    "state": "Arizona",
    "state_province": "Arizona",
    "street": "123 Main St",
    "website_url": "http://www.phoenixbrewco.com"
  },
  {
    "address_1": "456 Elm St",
    "address_2": null,
    "address_3": null,
    "brewery_type": "nano",
    "city": "Atlanta",
    "country": "United States",
    "id": "def12345-ghi6-7890-jklm-1234567890no",
    "latitude": "33.749001",
    "longitude": "-84.387978",
    "name": "Atlanta Nano Brewery",
    "phone": "4041234567",
    "postal_code": "30303",
    "state": "Georgia",
    "state_province": "Georgia",
    "street": "456 Elm St",
    "website_url": "http://www.atlantananobrewery.com"
  },
  {
    "address_1": "789 Oak St",
    "address_2": null,
    "address_3": null,
    "brewery_type": "regional",
    "city": "Denver",
    "country": "United States",
    "id": "ghi12345-jkl6-7890-mnop-1234567890qr",
    "latitude": "39.739236",
    "longitude": "-104.990251",
    "name": "Denver Regional Brewery",
    "phone": "3031234567",
    "postal_code": "80202",
    "state": "Colorado",
    "state_province": "Colorado",
    "street": "789 Oak St",
    "website_url": "http://www.denverregionalbrewery.com"
  },
  {
    "address_1": "101 Pine St",
    "address_2": null,
    "address_3": null,
    "brewery_type": "micro",
    "city": "Phoenix",
    "country": "United States",
    "id": "jkl12345-mno6-7890-pqrs-1234567890tu",
    "latitude": "33.450000",
    "longitude": "-112.070000",
    "name": "Phoenix Micro Brewery",
    "phone": "6029876543",
    "postal_code": "85006",
    "state": "Arizona",
    "state_province": "Arizona",
    "street": "101 Pine St",
    "website_url": "http://www.phoenixmicrobrewery.com"
  },
  {
    "address_1": "202 Maple St",
    "address_2": null,
    "address_3": null,
    "brewery_type": "taproom",
    "city": "Atlanta",
    "country": "United States",
    "id": "mno12345-pqr6-7890-stuv-1234567890wx",
    "latitude": "33.750000",
    "longitude": "-84.390000",
    "name": "Atlanta Taproom",
    "phone": "4049876543",
    "postal_code": "30305",
    "state": "Georgia",
    "state_province": "Georgia",
    "street": "202 Maple St",
    "website_url": "http://www.atlantataproom.com"
  }
]
